{
    "size": 18,
    "foodPantries": [
        {
            "name": "Fred Jordan Mission",
            "website": "https://www.fjm.org/",
            "contact": "626-712-3794",
            "street": "445 S. Towne Avenue",
            "zipCode": "90013",
            "cityState": "Los Angeles CA",
            "description": "Tuesday, Wednesday, Thursday, + Friday 9AM to 12PM and 3PM to 4PM / Saturday 9AM to 12PM",
            "longitude": null,
            "latitude": null
        },
        {
            "name": "Open Door Skidrow Ministries",
            "website": "N/A",
            "contact": "661-208-2143, No website",
            "street": "419 E. 6th Street",
            "zipCode": "90014",
            "cityState": "Los Angeles CA",
            "description": "Friday 7PM to 9PM, Sunday 4PM to 6PM",
            "longitude": null,
            "latitude": null
        },
        {
            "name": "Salvadoran American Leadership and educational Fun",
            "website": "http://salef.org/",
            "contact": "213-480-1052",
            "street": "421 S. Bixel Street, Suite A",
            "zipCode": "90017",
            "cityState": "Los Angeles CA",
            "description": "Wednesday 4PM to 6:30PM",
            "longitude": null,
            "latitude": null  
        },
        {
            "name": "Central City Neighborhood Partners",
            "website": "https://www.laccnp.org/index.php",
            "contact": "213-482-8618",
            "street": "501 S. Bixel Street ",
            "zipCode": "90017",
            "cityState": "Los Angeles CA",
            "description": "Thursday 9AM to 1PM",
            "longitude": null,
            "latitude": null  
        },
        {
            "name": "My friends House Foundation",
            "website": "https://www.myfriendshousela.org/wefeedthehungry",
            "contact": "213-537-0105",
            "street": "1244 E. 7th Street",
            "zipCode": "90021",
            "cityState": "Los Angeles CA",
            "description": "Wednesday 12PM to 2:30PM",
            "longitude": null,
            "latitude": null 
        },
        {
            "name": "White Memorial S.D.A. Church",
            "website": "https://www.thewhite.org/",
            "contact": "323-264-2170",
            "street": "401 N. State Street",
            "zipCode": "90033",
            "cityState": "Los Angeles CA",
            "description": "Tuesday 10AM to 12PM",
            "longitude": null,
            "latitude": null 
        },
        {
            "name": "Filipino Christian Church",
            "website": "https://www.fdccla.net/",
            "contact": "213-483-5821",
            "street": "301 N. Union Avenue",
            "zipCode": "90026",
            "cityState": "Los Angeles CA",
            "description": "2nd and 4th Saturday 10AM to 11AM",
            "longitude": null,
            "latitude": null 
        },
        {
            "name": "Spanish American S.D.A. Church",
            "website": "https://spanishamericanca.adventistchurch.org/",
            "contact": "323-222-7063",
            "street": "1815 E. Bridge Street",
            "zipCode": "90033",
            "cityState": "Los Angeles CA",
            "description": "4th Wednesday 4PM to 6PM & Every Saturday from 12PM - 1PM",
            "longitude": null,
            "latitude": null 
        },
        {
            "name": "St. Athanasius & St. Paul Church",
            "website": "https://saintala.org/",
            "contact": "213-482-2040",
            "street": "840 Echo Park Avenue",
            "zipCode": "90026",
            "cityState": "Los Angeles CA",
            "description": "Friday 7AM to 9AM",
            "longitude": null,
            "latitude": null 
        },
        {
            "name": "Central City Neighborhood Partners",
            "website": "https://www.universalchurchusa.org/en/endereco/california-bonnie-brae-29861",
            "contact": "800-581-4141",
            "street": "625 S. Bonnie Brae St",
            "zipCode": "90057",
            "cityState": "Los Angeles CA",
            "description": "Sunday 11AM to 4:30PM & Tuesday 3PM to 8PM",
            "longitude": null,
            "latitude": null 
        },
        {
            "name": "Salvation Army- L.A. Central Corp",
            "website": "https://www.salvationarmyusa.org/usn/cure-hunger/",
            "contact": "213-896-9178",
            "street": "1532 West 11th Street",
            "zipCode": "90015",
            "cityState": "Los Angeles CA",
            "description": "Monday - Thursday 9AM - 12PM & Friday 7AM - 12PM (SENIOR ONLY SATURDAY 9AM - 12PM)",
            "longitude": null,
            "latitude": null 
        },
        {
            "name": "Pico Union Project",
            "website": "https://www.picounionproject.org/",
            "contact": "213-915-0084",
            "street": "1153 Valencia St.",
            "zipCode": "90015",
            "cityState": "Los Angeles CA",
            "description": "Tuesday & Friday 8AM to 2PM",
            "longitude": null,
            "latitude": null 
        },
        {
            "name": "Estrella Del Mar de L.A. (Regis House Commun)",
            "website": "https://www.regishousecommunitycenter.org/",
            "contact": "213-380-8168",
            "street": "2212 Beverly Boulevard",
            "zipCode": "90057",
            "cityState": "Los Angeles CA",
            "description": "2nd and 4th Thursday of the month 10AM to 11AM",
            "longitude": null,
            "latitude": null 
        },
        {
            "name": "St. Francis Center",
            "website": "https://www.stfranciscenterla.org/campaigns/family-well-being/",
            "contact": "213-747-5347",
            "street": "1835 S. Hope Street",
            "zipCode": "90015",
            "cityState": "Los Angeles CA",
            "description": "Wednesday, Thursday, Saturday 9AM to 11AM(SENIOR ONLY Friday 10AM-1PM)",
            "longitude": null,
            "latitude": null 
        },
        {
            "name": "All Peoples Christian Center",
            "website": "https://allpeoplescc.org/programs/adults-family/",
            "contact": "213-747-6357",
            "street": "822 E. 20th Street",
            "zipCode": "90011",
            "cityState": "Los Angeles CA",
            "description": "Friday 9:30AM to 1PM",
            "longitude": null,
            "latitude": null 
        },
        {
            "name": "Labor Community Services of Los Angeles",
            "website": "https://lcs-la.org/events",
            "contact": "213-381-5611",
            "street": "2130 W. James M. Wood Blvd",
            "zipCode": "90006",
            "cityState": "Los Angeles CA",
            "description": "Check website for upcoming food distribution events.",
            "longitude": null,
            "latitude": null 
        },
        {
            "name": "Healing Urban Barrios",
            "website": "http://www.healingurbanbarrios.org/#programs-section",
            "contact": "Visit website's contact section.",
            "street": "163 S. Avenue 23 Suite#203",
            "zipCode": "90031",
            "cityState": "Los Angeles CA",
            "description": "Contact organization for more info on the Food Give-Away Program",
            "longitude": null,
            "latitude": null 
        },
        {
            "name": "Los Angeles Boys & Girls Club",
            "website": "https://www.labgc.org/programs/healthy-lifestyles/",
            "contact": "323-221-9111",
            "street": "2635 Pasadena Avenue",
            "zipCode": "90031",
            "cityState": "Los Angeles CA",
            "description": "Thursdays 5:00-7:00pm",
            "longitude": null,
            "latitude": null  
        }
    ]
}